{
    "1": {"name": "urmia", "country": "iran", "layers": [2016, 2017, 2018], "min_longitude":44.587725529095295, "min_latitude":36.86436828406643, "max_longitude":46.230181583782795, "max_latitude":38.50682433875393},
    "2": {"name": "popoo", "country": "bolivia", "layers": [2016, 2018], "min_longitude":-68.66848367000537, "min_latitude":-19.687928531849003, "max_longitude":-66.67924128546656, "max_latitude":-17.8774477409051},
    "3": {"name": "copais", "country": "greece", "layers": [2016, 2017, 2018], "min_longitude":23.214268551013436, "min_latitude":38.36067354565393, "max_longitude":23.350911007068124, "max_latitude":38.4633270490719},
    "4": {"name": "mojave", "country": "united_states", "layers": [2016, 2018], "min_longitude":-115.42507235769445, "min_latitude":34.94273489926993, "max_longitude":-113.78261630300695, "max_latitude":36.58519095395743},
    "5": {"name": "aral", "country": "kazahkstan", "layers": [2016, 2018], "min_longitude":58.032853536637845, "min_latitude":43.955292007325, "max_longitude":61.317765646012845, "max_latitude":47.2402041167},
    "6": {"name": "ramganga", "country": "india", "layers": [2016, 2018], "min_longitude":78.63716910452058, "min_latitude":29.468167756293038, "max_longitude":78.91045401662996, "max_latitude":29.673474763128976},
    "7": {"name": "qinghai", "country": "china", "layers": [2016, 2018], "min_longitude":99.56471967977474, "min_latitude":35.70094613663666, "max_longitude":101.20168257039974, "max_latitude":37.34340219132416},
    "8": {"name": "salton", "country": "united_states", "layers": [2016, 2018], "min_longitude":-116.21928854749297, "min_latitude":32.903320741965295, "max_longitude":-115.40080710218047, "max_latitude":33.724548769309045},
    "9": {"name": "faguibine", "country": "mali", "layers": [2016, 2018], "min_longitude":-4.656089323623854, "min_latitude":14.959306189862815, "max_longitude":-3.0191264329988536, "max_latitude":16.601762244550315, "width":4082},
    "10": {"name": "mono", "country": "united_states", "layers": [2016, 2018], "min_longitude":-119.22357779576633, "min_latitude":37.797192162208084, "max_longitude":-118.81433707311008, "max_latitude":38.20780617587996, "width":4082},
    "11": {"name": "walker", "country": "united_states", "layers": [2016, 2018], "min_longitude":-118.82841344222616, "min_latitude":38.58649115903216, "max_longitude":-118.62379308089804, "max_latitude":38.791798165868094, "width":4082},
    "12": {"name": "balaton", "country": "hungary", "layers": [2016, 2017, 2018], "min_longitude":17.138306471163226, "min_latitude":46.438781725159295, "max_longitude":18.231446119600726, "max_latitude":47.260009752503045, "height":3084},
    "13": {"name": "koroneia", "country": "greece", "layers": [2016, 2017, 2018], "min_longitude":23.34167375183668, "min_latitude":40.56321556296156, "max_longitude":23.614958663946055, "max_latitude":40.7685225697975, "height":3084},
    "14": {"name": "salda", "country": "turkey", "layers": [2016, 2017, 2018], "min_longitude":29.6337346568769, "min_latitude":37.49763563391751, "max_longitude":29.736044837540963, "max_latitude":37.60028913733548, "width":4082},
    "15": {"name": "burdur", "country": "turkey", "layers": [2016, 2017, 2018], "min_longitude":30.008970333642345, "min_latitude":37.6345355820376, "max_longitude":30.373579098290783, "max_latitude":37.83984258887354, "height":2312},
    "16": {"name": "mendocino", "country": "united_states", "layers": [2016, 2018], "min_longitude":-123.19613698824355, "min_latitude":39.189371563341254, "max_longitude":-123.14498189791152, "max_latitude":39.24069831505024, "width":4082},
    "17": {"name": "elephant_butte", "country": "united_states", "layers": [2016, 2018], "min_longitude":-107.23803910498334, "min_latitude":33.14614806405013, "max_longitude":-107.13572892431928, "max_latitude":33.2488015674681, "width":4082},
    "18": {"name": "ercek_golu", "country": "turkey", "layers": [2016, 2017, 2018], "min_longitude":43.4949000, "min_latitude":40.56321556296156, "max_longitude":43.6858000, "max_latitude":38.765300},
    "19": {"name": "salada_petrolea", "country": "spain", "layers": [2016, 2017, 2018], "min_longitude":-1.5788000, "min_latitude":38.8283000, "max_longitude":-1.5524000, "max_latitude":38.8539000},
    "20": {"name": "monzanares", "country": "spain", "layers": [2016, 2017, 2018], "min_longitude":-3.8232000, "min_latitude":40.5488000, "max_longitude":-3.7604000, "max_latitude":40.5879000},
    "21": {"name": "embalse_novacerrada", "country": "spain", "layers": [2016, 2018], "min_longitude":-4.0163000, "min_latitude":40.7109000, "max_longitude":-3.9990000, "max_latitude":40.7287000},
    "22": {"name": "azud_riolobos", "country": "spain", "layers": [2016, 2017, 2018], "min_longitude":-5.3232000, "min_latitude":40.9750000, "max_longitude":-5.2788000, "max_latitude":41.0127000},
    "23": {"name": "encrobas", "country": "spain", "layers": [2016, 2017, 2018], "min_longitude":-8.4358000, "min_latitude":43.1822000, "max_longitude":-8.4086000, "max_latitude":43.2049000},
    "24": {"name": "banyoles", "country": "spain", "layers": [2016, 2017, 2018], "min_longitude":2.7464000, "min_latitude":42.1147000, "max_longitude":2.7649000, "max_latitude":42.1378000},
    "25": {"name": "laguna_de_la_mata", "country": "spain", "layers": [2016, 2017, 2018], "min_longitude":-0.7127000, "min_latitude":38.0196000, "max_longitude":-0.6554000, "max_latitude":38.0561000},
    "26": {"name": "van_golu", "country": "turkey", "layers": [2016, 2017, 2018], "min_longitude":42.116, "min_latitude":38.225, "max_longitude":43.748, "max_latitude":39.092}
}